[
    {
        "text": "Potholes on MG Road are dangerous for commuters!",
        "user": "@amit_sharma",
        "location": "Bangalore, Karnataka",
        "latitude": 12.9716,
        "longitude": 77.5946,
        "timestamp": "2025-04-25 09:30:00",
        "sentiment": "Negative",
        "emotion": "anger",
        "category": "Infrastructure"
    },
    {
        "text": "New hospital in South Delhi is a game-changer!",
        "user": "@priya_singh",
        "location": "Delhi",
        "latitude": 28.6139,
        "longitude": 77.2090,
        "timestamp": "2025-04-25 14:00:00",
        "sentiment": "Positive",
        "emotion": "happiness",
        "category": "Health"
    },
    {
        "text": "Garbage pile-up in Bandra is unbearable.",
        "user": "@rahul_mehta",
        "location": "Mumbai, Maharashtra",
        "latitude": 19.0760,
        "longitude": 72.8777,
        "timestamp": "2025-04-25 11:15:00",
        "sentiment": "Negative",
        "emotion": "disgust",
        "category": "Environment"
    },
    {
        "text": "Street lights not working in Anna Nagar.",
        "user": "@sneha_kumar",
        "location": "Chennai, Tamil Nadu",
        "latitude": 13.0827,
        "longitude": 80.2707,
        "timestamp": "2025-04-24 20:00:00",
        "sentiment": "Neutral",
        "emotion": "sadness",
        "category": "Infrastructure"
    },
    {
        "text": "New school in Salt Lake is excellent!",
        "user": "@aniruddha_bose",
        "location": "Kolkata, West Bengal",
        "latitude": 22.5726,
        "longitude": 88.3639,
        "timestamp": "2025-04-26 10:45:00",
        "sentiment": "Positive",
        "emotion": "happiness",
        "category": "Education"
    },
    {
        "text": "Air pollution in Jaipur is worsening.",
        "user": "@vikram_shekhawat",
        "location": "Jaipur, Rajasthan",
        "latitude": 26.9124,
        "longitude": 75.7873,
        "timestamp": "2025-04-25 16:20:00",
        "sentiment": "Negative",
        "emotion": "fear",
        "category": "Environment"
    },
    {
        "text": "Water supply restored in Sector 5, Guwahati.",
        "user": "@nisha_das",
        "location": "Guwahati, Assam",
        "latitude": 26.1445,
        "longitude": 91.7362,
        "timestamp": "2025-04-26 08:30:00",
        "sentiment": "Positive",
        "emotion": "happiness",
        "category": "Health"
    },
    {
        "text": "Crime rates in Hyderabad are concerning.",
        "user": "@suresh_reddy",
        "location": "Hyderabad, Telangana",
        "latitude": 17.3850,
        "longitude": 78.4867,
        "timestamp": "2025-04-25 19:00:00",
        "sentiment": "Negative",
        "emotion": "fear",
        "category": "Public Safety"
    },
    {
        "text": "New metro line in Pune is fantastic!",
        "user": "@rohan_pawar",
        "location": "Pune, Maharashtra",
        "latitude": 18.5204,
        "longitude": 73.8567,
        "timestamp": "2025-04-26 12:00:00",
        "sentiment": "Positive",
        "emotion": "happiness",
        "category": "Infrastructure"
    },
    {
        "text": "Lack of clean water in Bhopal is a crisis.",
        "user": "@neha_verma",
        "location": "Bhopal, Madhya Pradesh",
        "latitude": 23.2599,
        "longitude": 77.4126,
        "timestamp": "2025-04-25 13:45:00",
        "sentiment": "Negative",
        "emotion": "sadness",
        "category": "Health"
    },
    {
        "text": "Tree plantation drive in Ahmedabad was a success!",
        "user": "@kunal_patel",
        "location": "Ahmedabad, Gujarat",
        "latitude": 23.0225,
        "longitude": 72.5714,
        "timestamp": "2025-04-25 17:30:00",
        "sentiment": "Positive",
        "emotion": "happiness",
        "category": "Environment"
    },
    {
        "text": "Poor road conditions in Patna.",
        "user": "@rajesh_sinha",
        "location": "Patna, Bihar",
        "latitude": 25.5941,
        "longitude": 85.1376,
        "timestamp": "2025-04-24 22:15:00",
        "sentiment": "Negative",
        "emotion": "anger",
        "category": "Infrastructure"
    },
    {
        "text": "New library in Chandigarh is impressive.",
        "user": "@simran_kaur",
        "location": "Chandigarh",
        "latitude": 30.7333,
        "longitude": 76.7794,
        "timestamp": "2025-04-26 09:00:00",
        "sentiment": "Positive",
        "emotion": "happiness",
        "category": "Education"
    },
    {
        "text": "Stray dog issue in Lucknow needs attention.",
        "user": "@arjun_mishra",
        "location": "Lucknow, Uttar Pradesh",
        "latitude": 26.8467,
        "longitude": 80.9462,
        "timestamp": "2025-04-25 15:10:00",
        "sentiment": "Negative",
        "emotion": "fear",
        "category": "Public Safety"
    },
    {
        "text": "Solar panels installed in Coimbatore schools!",
        "user": "@divya_nair",
        "location": "Coimbatore, Tamil Nadu",
        "latitude": 11.0168,
        "longitude": 76.9558,
        "timestamp": "2025-04-26 11:30:00",
        "sentiment": "Positive",
        "emotion": "happiness",
        "category": "Environment"
    },
    {
        "text": "Traffic jams in Gurgaon are unbearable.",
        "user": "@manish_aggarwal",
        "location": "Gurgaon, Haryana",
        "latitude": 28.4595,
        "longitude": 77.0266,
        "timestamp": "2025-04-25 18:45:00",
        "sentiment": "Negative",
        "emotion": "anger",
        "category": "Infrastructure"
    },
    {
        "text": "Free health camp in Bhubaneswar was helpful.",
        "user": "@santosh_behera",
        "location": "Bhubaneswar, Odisha",
        "latitude": 20.2961,
        "longitude": 85.8245,
        "timestamp": "2025-04-26 10:00:00",
        "sentiment": "Positive",
        "emotion": "happiness",
        "category": "Health"
    },
    {
        "text": "No street lights in Agra’s outskirts.",
        "user": "@pooja_yadav",
        "location": "Agra, Uttar Pradesh",
        "latitude": 27.1767,
        "longitude": 78.0081,
        "timestamp": "2025-04-25 20:30:00",
        "sentiment": "Negative",
        "emotion": "sadness",
        "category": "Infrastructure"
    },
    {
        "text": "New IT hub in Kochi is boosting jobs!",
        "user": "@anil_thomas",
        "location": "Kochi, Kerala",
        "latitude": 9.9312,
        "longitude": 76.2673,
        "timestamp": "2025-04-26 13:15:00",
        "sentiment": "Positive",
        "emotion": "happiness",
        "category": "Education"
    },
    {
        "text": "Sewage overflow in Indore is a health hazard.",
        "user": "@ravi_joshi",
        "location": "Indore, Madhya Pradesh",
        "latitude": 22.7196,
        "longitude": 75.8577,
        "timestamp": "2025-04-25 12:50:00",
        "sentiment": "Negative",
        "emotion": "disgust",
        "category": "Health"
    },
    {
        "text": "Cleanliness drive in Varanasi is inspiring.",
        "user": "@shweta_tiwari",
        "location": "Varanasi, Uttar Pradesh",
        "latitude": 25.3176,
        "longitude": 82.9739,
        "timestamp": "2025-04-26 14:00:00",
        "sentiment": "Positive",
        "emotion": "happiness",
        "category": "Environment"
    },
    {
        "text": "Lack of police patrolling in Nagpur at night.",
        "user": "@vivek_deshmukh",
        "location": "Nagpur, Maharashtra",
        "latitude": 21.1458,
        "longitude": 79.0882,
        "timestamp": "2025-04-25 21:00:00",
        "sentiment": "Negative",
        "emotion": "fear",
        "category": "Public Safety"
    },
    {
        "text": "New bridge in Surat is easing traffic.",
        "user": "@jayesh_shah",
        "location": "Surat, Gujarat",
        "latitude": 21.1702,
        "longitude": 72.8311,
        "timestamp": "2025-04-26 08:45:00",
        "sentiment": "Positive",
        "emotion": "happiness",
        "category": "Infrastructure"
    },
    {
        "text": "Poor sanitation in Kanpur markets.",
        "user": "@ankita_gupta",
        "location": "Kanpur, Uttar Pradesh",
        "latitude": 26.4499,
        "longitude": 80.3319,
        "timestamp": "2025-04-25 14:30:00",
        "sentiment": "Negative",
        "emotion": "disgust",
        "category": "Environment"
    },
    {
        "text": "New skill center in Dehradun is promising.",
        "user": "@rohit_bhatt",
        "location": "Dehradun, Uttarakhand",
        "latitude": 30.3165,
        "longitude": 78.0322,
        "timestamp": "2025-04-26 09:30:00",
        "sentiment": "Positive",
        "emotion": "happiness",
        "category": "Education"
    },
    {
        "text": "Flooded roads in Visakhapatnam after rain.",
        "user": "@krishna_rao",
        "location": "Visakhapatnam, Andhra Pradesh",
        "latitude": 17.6868,
        "longitude": 83.2185,
        "timestamp": "2025-04-25 16:00:00",
        "sentiment": "Negative",
        "emotion": "sadness",
        "category": "Infrastructure"
    },
    {
        "text": "Community health program in Ranchi is effective.",
        "user": "@meera_singh",
        "location": "Ranchi, Jharkhand",
        "latitude": 23.3441,
        "longitude": 85.3096,
        "timestamp": "2025-04-26 11:00:00",
        "sentiment": "Positive",
        "emotion": "happiness",
        "category": "Health"
    },
    {
        "text": "Noise pollution in Faridabad is out of control.",
        "user": "@sameer_khanna",
        "location": "Faridabad, Haryana",
        "latitude": 28.4089,
        "longitude": 77.3178,
        "timestamp": "2025-04-25 17:00:00",
        "sentiment": "Negative",
        "emotion": "anger",
        "category": "Environment"
    },
    {
        "text": "New CCTV cameras in Amritsar improve safety.",
        "user": "@harpreet_singh",
        "location": "Amritsar, Punjab",
        "latitude": 31.6340,
        "longitude": 74.8723,
        "timestamp": "2025-04-26 12:30:00",
        "sentiment": "Positive",
        "emotion": "happiness",
        "category": "Public Safety"
    },
    {
        "text": "Waterlogging in Mysore during monsoon.",
        "user": "@lakshmi_prasad",
        "location": "Mysore, Karnataka",
        "latitude": 12.2958,
        "longitude": 76.6394,
        "timestamp": "2025-04-25 15:45:00",
        "sentiment": "Negative",
        "emotion": "sadness",
        "category": "Infrastructure"
    },
        {
            "text": "Massive security lapse in Pahalgam, people are terrified!",
            "user": "@adil_mir",
            "location": "Pahalgam, Jammu and Kashmir",
            "latitude": 34.0159,
            "longitude": 75.3217,
            "timestamp": "2025-04-26 15:00:00",
            "sentiment": "Negative",
            "emotion": "fear",
            "category": "Public Safety"
        },
        {
            "text": "testing here, people are terrified!",
            "user": "@adil_mirsti",
            "location": "Pahalgam, Jammu and Kashmir",
            "latitude": 34.0110,
            "longitude": 75.3100,
            "timestamp": "2025-04-26 15:00:00",
            "sentiment": "Negative",
            "emotion": "fear",
            "category": "Public Safety"
        },
        {
            "text": "Increased violence near Anantnag after Pahalgam attack, locals fear for their lives.",
            "user": "@sana_bhat",
            "location": "Anantnag, Jammu and Kashmir",
            "latitude": 33.7315,
            "longitude": 75.1490,
            "timestamp": "2025-04-26 16:30:00",
            "sentiment": "Negative",
            "emotion": "fear",
            "category": "Public Safety"
        },
        {
            "text": "Security forces failing to protect civilians in Srinagar after the recent attack.",
            "user": "@faizan_wani",
            "location": "Srinagar, Jammu and Kashmir",
            "latitude": 34.0837,
            "longitude": 74.7973,
            "timestamp": "2025-04-26 17:45:00",
            "sentiment": "Negative",
            "emotion": "anger",
            "category": "Public Safety"
        },
        {
            "text": "Panic and chaos in Baramulla post-Pahalgam attack. Public feels abandoned.",
            "user": "@yusuf_lone",
            "location": "Baramulla, Jammu and Kashmir",
            "latitude": 34.1989,
            "longitude": 74.3636,
            "timestamp": "2025-04-26 18:20:00",
            "sentiment": "Negative",
            "emotion": "sadness",
            "category": "Public Safety"
        },
        {
            "text": "Kupwara residents living in fear after terror attack in Pahalgam.",
            "user": "@nasir_rather",
            "location": "Kupwara, Jammu and Kashmir",
            "latitude": 34.5267,
            "longitude": 74.2645,
            "timestamp": "2025-04-26 19:00:00",
            "sentiment": "Negative",
            "emotion": "fear",
            "category": "Public Safety"
        },
        {
            "text": "No sense of safety left in Pulwama after the horrifying events in Pahalgam.",
            "user": "@hina_qureshi",
            "location": "Pulwama, Jammu and Kashmir",
            "latitude": 33.8740,
            "longitude": 74.8990,
            "timestamp": "2025-04-26 20:15:00",
            "sentiment": "Negative",
            "emotion": "sadness",
            "category": "Public Safety"
        },
        {
            "text": "Potholes on MG Road are dangerous for commuters!",
            "user": "@amit_sharma",
            "location": "Bangalore, Karnataka",
            "latitude": 12.9716,
            "longitude": 77.5946,
            "timestamp": "2025-04-25 09:30:00",
            "sentiment": "Negative",
            "emotion": "anger",
            "category": "Infrastructure"
        },
        {
            "text": "New hospital in South Delhi is a game-changer!",
            "user": "@priya_singh",
            "location": "Delhi",
            "latitude": 28.6139,
            "longitude": 77.2090,
            "timestamp": "2025-04-25 14:00:00",
            "sentiment": "Positive",
            "emotion": "happiness",
            "category": "Health"
        },
        {
            "text": "Garbage pile-up in Bandra is unbearable.",
            "user": "@rahul_mehta",
            "location": "Mumbai, Maharashtra",
            "latitude": 19.0760,
            "longitude": 72.8777,
            "timestamp": "2025-04-25 11:15:00",
            "sentiment": "Negative",
            "emotion": "disgust",
            "category": "Environment"
        },
        {
            "text": "Street lights not working in Anna Nagar.",
            "user": "@sneha_kumar",
            "location": "Chennai, Tamil Nadu",
            "latitude": 13.0827,
            "longitude": 80.2707,
            "timestamp": "2025-04-24 20:00:00",
            "sentiment": "Neutral",
            "emotion": "sadness",
            "category": "Infrastructure"
        },
        {
            "text": "New school in Salt Lake is excellent!",
            "user": "@aniruddha_bose",
            "location": "Kolkata, West Bengal",
            "latitude": 22.5726,
            "longitude": 88.3639,
            "timestamp": "2025-04-26 10:45:00",
            "sentiment": "Positive",
            "emotion": "happiness",
            "category": "Education"
        },
        {
            "text": "Air pollution in Jaipur is worsening.",
            "user": "@vikram_shekhawat",
            "location": "Jaipur, Rajasthan",
            "latitude": 26.9124,
            "longitude": 75.7873,
            "timestamp": "2025-04-25 16:20:00",
            "sentiment": "Negative",
            "emotion": "fear",
            "category": "Environment"
        },
        {
            "text": "Water supply restored in Sector 5, Guwahati.",
            "user": "@nisha_das",
            "location": "Guwahati, Assam",
            "latitude": 26.1445,
            "longitude": 91.7362,
            "timestamp": "2025-04-26 08:30:00",
            "sentiment": "Positive",
            "emotion": "happiness",
            "category": "Health"
        },
        {
            "text": "Crime rates in Hyderabad are concerning.",
            "user": "@suresh_reddy",
            "location": "Hyderabad, Telangana",
            "latitude": 17.3850,
            "longitude": 78.4867,
            "timestamp": "2025-04-25 19:00:00",
            "sentiment": "Negative",
            "emotion": "fear",
            "category": "Public Safety"
        },
        {
            "text": "New metro line in Pune is fantastic!",
            "user": "@rohan_pawar",
            "location": "Pune, Maharashtra",
            "latitude": 18.5204,
            "longitude": 73.8567,
            "timestamp": "2025-04-26 12:00:00",
            "sentiment": "Positive",
            "emotion": "happiness",
            "category": "Infrastructure"
        },
        {
            "text": "Lack of clean water in Bhopal is a crisis.",
            "user": "@neha_verma",
            "location": "Bhopal, Madhya Pradesh",
            "latitude": 23.2599,
            "longitude": 77.4126,
            "timestamp": "2025-04-25 13:45:00",
            "sentiment": "Negative",
            "emotion": "sadness",
            "category": "Health"
        },
        {
            "text": "Tree plantation drive in Ahmedabad was a success!",
            "user": "@kunal_patel",
            "location": "Ahmedabad, Gujarat",
            "latitude": 23.0225,
            "longitude": 72.5714,
            "timestamp": "2025-04-25 17:30:00",
            "sentiment": "Positive",
            "emotion": "happiness",
            "category": "Environment"
        },
        {
            "text": "Poor road conditions in Patna.",
            "user": "@rajesh_sinha",
            "location": "Patna, Bihar",
            "latitude": 25.5941,
            "longitude": 85.1376,
            "timestamp": "2025-04-24 22:15:00",
            "sentiment": "Negative",
            "emotion": "anger",
            "category": "Infrastructure"
        },
        {
            "text": "New library in Chandigarh is impressive.",
            "user": "@simran_kaur",
            "location": "Chandigarh",
            "latitude": 30.7333,
            "longitude": 76.7794,
            "timestamp": "2025-04-26 09:00:00",
            "sentiment": "Positive",
            "emotion": "happiness",
            "category": "Education"
        },
        {
            "text": "Stray dog issue in Lucknow needs attention.",
            "user": "@arjun_mishra",
            "location": "Lucknow, Uttar Pradesh",
            "latitude": 26.8467,
            "longitude": 80.9462,
            "timestamp": "2025-04-25 15:10:00",
            "sentiment": "Negative",
            "emotion": "fear",
            "category": "Public Safety"
        },
        {
            "text": "Solar panels installed in Coimbatore schools!",
            "user": "@divya_nair",
            "location": "Coimbatore, Tamil Nadu",
            "latitude": 11.0168,
            "longitude": 76.9558,
            "timestamp": "2025-04-26 11:30:00",
            "sentiment": "Positive",
            "emotion": "happiness",
            "category": "Environment"
        },
        {
            "text": "Traffic jams in Gurgaon are unbearable.",
            "user": "@manish_aggarwal",
            "location": "Gurgaon, Haryana",
            "latitude": 28.4595,
            "longitude": 77.0266,
            "timestamp": "2025-04-25 18:45:00",
            "sentiment": "Negative",
            "emotion": "anger",
            "category": "Infrastructure"
        },
        {
            "text": "Free health camp in Bhubaneswar was helpful.",
            "user": "@santosh_behera",
            "location": "Bhubaneswar, Odisha",
            "latitude": 20.2961,
            "longitude": 85.8245,
            "timestamp": "2025-04-26 10:00:00",
            "sentiment": "Positive",
            "emotion": "happiness",
            "category": "Health"
        },
        {
            "text": "No street lights in Agra’s outskirts.",
            "user": "@pooja_yadav",
            "location": "Agra, Uttar Pradesh",
            "latitude": 27.1767,
            "longitude": 78.0081,
            "timestamp": "2025-04-25 20:30:00",
            "sentiment": "Negative",
            "emotion": "sadness",
            "category": "Infrastructure"
        },
        {
            "text": "New IT hub in Kochi is boosting jobs!",
            "user": "@anil_thomas",
            "location": "Kochi, Kerala",
            "latitude": 9.9312,
            "longitude": 76.2673,
            "timestamp": "2025-04-26 13:15:00",
            "sentiment": "Positive",
            "emotion": "happiness",
            "category": "Education"
        },
        {
            "text": "Sewage overflow in Indore is a health hazard.",
            "user": "@ravi_joshi",
            "location": "Indore, Madhya Pradesh",
            "latitude": 22.7196,
            "longitude": 75.8577,
            "timestamp": "2025-04-25 12:50:00",
            "sentiment": "Negative",
            "emotion": "disgust",
            "category": "Health"
        },
        {
            "text": "Cleanliness drive in Varanasi is inspiring.",
            "user": "@shweta_tiwari",
            "location": "Varanasi, Uttar Pradesh",
            "latitude": 25.3176,
            "longitude": 82.9739,
            "timestamp": "2025-04-25 17:00:00",
            "sentiment": "Positive",
            "emotion": "happiness",
            "category": "Environment"
        }
    
]